port_id,port_name,lat,lng,installation_day,city_id,ward,station,distance,capacity,payment_amount,KEY_CODE
9004042,モクシー京都二条,35.00993909310929,135.74283859793786,2022-03-25,kyoto,中京区,二条駅,260.31676074897354,8.0,16500.0,5235451912.0
9004045,コーポイチハラ,34.984057,135.770113,2022-05-17,kyoto,東山区,東福寺駅,239.5232485884734,5.0,5500.0,5235368121.0
9040001,タッセルイン河原町二条,35.013746,135.768425,2021-11-25,kyoto,中京区,京都市役所前駅,329.1352125926179,3.0,11000.0,5235461132.0
9040002,BON京都ステーション,34.982977,135.752499,2021-11-25,kyoto,南区,東寺駅,366.703981286567,5.0,10000.0,5235367033.0
9040003,ホテルウィングインターナショナルプレミアム京都三条,35.010004,135.776162,2021-11-25,kyoto,左京区,三条京阪駅,180.3501010630698,8.0,13200.0,5235461211.0
9040004,なでしこ三条神泉苑,35.009033,135.747577,2021-11-25,kyoto,中京区,二条城前駅,445.8889577684344,3.0,4950.0,5235451922.0
9040005,THE POCKET HOTEL 京都烏丸五条,34.996395,135.760393,2021-11-25,kyoto,下京区,五条駅,222.16162551984524,6.0,13200.0,5235369042.0
9040006,THE POCKET HOTEL 京都四条烏丸,35.004265,135.764066,2021-11-25,kyoto,中京区,烏丸駅,304.92450515324447,10.0,16500.0,5235460131.0
9040007,相鉄フレッサイン 京都四条烏丸,35.002282,135.758692,2021-11-25,kyoto,下京区,四条駅,99.17217189097012,4.0,6600.0,5235460023.0
9040008,相鉄フレッサイン 京都駅八条口,34.982796,135.761053,2021-11-25,kyoto,南区,京都駅,268.6019205984911,10.0,16500.0,5235367044.0
9040009,N.H.Kビル,35.017435,135.758831,2021-11-25,kyoto,中京区,丸太町駅,290.4677839457036,8.0,13200.0,5235462021.0
9040010,好日居マンション藍染下坂,34.995215,135.761321,2021-11-25,kyoto,下京区,五条駅,166.14152063303257,11.0,18150.0,5235369024.0
9040012,メゾンドソフィア,34.997076,135.754428,2022-01-27,kyoto,下京区,五条駅,564.0049026402385,10.0,16500.0,5235369032.0
9040013,ベルヴィ東山,35.0121,135.778482,2021-11-24,kyoto,左京区,東山駅,348.7648625328582,8.0,13200.0,5235461214.0
9040014,クレメント五条,34.995835,135.742613,2021-11-24,kyoto,下京区,丹波口駅,159.8310484650475,4.0,6600.0,5235359932.0
9040015,シャルト五条,34.995876,135.744327,2021-11-24,kyoto,下京区,丹波口駅,246.0886557013117,6.0,9900.0,5235359941.0
9040016,ベルヴィ九条,34.980065,135.755538,2021-11-25,kyoto,南区,東寺駅,271.9770211518023,10.0,16500.0,5235367032.0
9040017,グランビュー下長者,35.022568,135.748717,2021-11-25,kyoto,上京区,二条城前駅,1204.3107842978727,7.0,11550.0,5235452942.0
9040019,二条駅,35.011017,135.741547,2021-11-24,kyoto,中京区,二条駅,143.41441568942454,40.0,88000.0,5235451914.0
9040020,梅小路京都西駅,34.988284,135.743118,2021-11-25,kyoto,下京区,丹波口駅,998.3368497179956,15.0,110000.0,5235358932.0
9040021,西日本旅客鉄道京都電車区,34.986058,135.754593,2021-11-25,kyoto,下京区,京都駅,261.82078566294723,10.0,36300.0,5235368014.0
9040022,京阪三条駅,35.008526,135.772522,2021-11-24,kyoto,東山区,三条駅,39.24841434099428,13.0,57200.0,5235461122.0
9040023,出町柳駅,35.030381,135.773531,2021-11-25,kyoto,左京区,出町柳駅,34.312522733803114,5.0,19250.0,5235463142.0
9040024,ハートンホテル京都,35.011765,135.760926,2021-12-01,kyoto,中京区,烏丸御池駅,128.4859141743068,4.0,8800.0,5235461024.0
9040025,ヴィヴァーチェ四条大宮,35.002922,135.751174,2021-12-01,kyoto,下京区,大宮駅,203.0093676027561,3.0,4950.0,5235460013.0
9040026,興和セントラルビル,35.005723,135.754973,2021-12-01,kyoto,中京区,烏丸御池駅,561.9748405743335,3.0,4950.0,5235460032.0
9040027,sawarabi如水,35.02648,135.750955,2021-12-01,kyoto,上京区,今出川駅,821.2490279103633,21.0,34650.0,5235463011.0
9040028,イズミヤ高野店,35.041154,135.781547,2022-01-04,kyoto,左京区,茶山駅,429.6376199440913,12.0,19800.0,5235464243.0
9040029,ヴィヴァーチェ平野,35.033092,135.732948,2021-12-27,kyoto,北区,北野白梅町駅,653.7057976627418,3.0,6600.0,5235453843.0
9040030,ヴィヴァーチェ智恵光院,35.023593,135.747193,2021-12-27,kyoto,上京区,今出川駅,1269.383305042177,7.0,11550.0,5235452944.0
9040031,エステート三条ビル,35.008552,135.747042,2021-12-29,kyoto,中京区,二条城前駅,518.202121880765,3.0,8250.0,5235451922.0
9040032,ヨドバシカメラ マルチメディア京都 京都駅側南入り口,34.98789,135.759315,2022-01-07,kyoto,下京区,京都駅,194.7687562948052,8.0,17600.0,5235368041.0
9040033,第2ソリテア,34.986242,135.773502,2022-01-07,kyoto,東山区,東福寺駅,582.8529420038839,3.0,4950.0,5235368124.0
9040034,ヨドバシカメラ マルチメディア京都　烏丸通り沿い北東入り口,34.988573,135.759614,2022-01-12,kyoto,下京区,京都駅,264.22864596492354,15.0,33000.0,5235368042.0
9040035,神宮丸太町駅（京阪川端駐輪センター）,35.016279,135.772643,2022-02-02,kyoto,左京区,神宮丸太町駅,306.9873430519571,10.0,11000.0,5235461144.0
9040036,ラピス四条駐輪場,35.00515,135.749827,2022-03-09,kyoto,中京区,大宮駅,178.46545875686002,2.0,22000.0,5235450942.0
9040037,リバーサイド下鴨,35.040104,135.776523,2022-03-08,kyoto,左京区,元田中駅,718.478074784574,4.0,4620.0,5235464233.0
9040038,HOTEL NINJA BLACK,35.023298,135.755613,2022-03-08,kyoto,上京区,今出川駅,737.2720079548138,2.0,3300.0,5235462034.0
9040040,イズミヤ白梅町店,35.02731481937404,135.73049308517747,2022-03-18,kyoto,北区,北野白梅町駅,64.90887817243163,4.0,6600.0,5235453814.0
9040041,松村ビル,34.9923267,135.7611264,2022-03-16,kyoto,下京区,五条駅,269.7184914304239,2.0,0.0,5235369022.0
9040043,ザ ロイヤルパークキャンバス 京都二条,35.010793,135.742935,2022-03-31,kyoto,中京区,二条駅,171.53390046866303,2.0,4400.0,5235451914.0
9040044,ザ ロイヤルパークホテル 京都梅小路,34.98795923782352,135.74439761125345,2022-03-28,kyoto,下京区,丹波口駅,1050.295402262111,5.0,15400.0,5235358941.0
9040045,ホテルチェックイン四条烏丸,35.00559010138932,135.75984331966563,2022-03-29,kyoto,中京区,烏丸駅,227.1696231688898,3.0,4400.0,5235460042.0
9040046,茶山駅,35.038131,135.78455,2022-03-31,kyoto,左京区,茶山駅,3.7032371530573176,8.0,11000.0,5235464242.0
9040047,KRPスタジオ棟前,34.995106,135.736595,2022-03-31,kyoto,下京区,丹波口駅,561.7131381309613,3.0,3300.0,5235359824.0
9040048,KRP4号館前,34.99498,135.739105,2022-03-31,kyoto,下京区,丹波口駅,376.2481706406946,3.0,3300.0,5235359913.0
9040049,KRP東側,34.995288,135.7407,2022-03-31,kyoto,下京区,丹波口駅,255.05183897021888,3.0,3300.0,5235359914.0
9040050,修学院駅,35.050125,135.790171,2022-03-31,kyoto,左京区,修学院駅,50.80632645149644,10.0,11000.0,5235466311.0
9040051,枡儀洛央ビル,34.998956,135.766453,2022-03-31,kyoto,下京区,清水五条駅,302.67887467426857,5.0,6600.0,5235369134.0
9040052,枡儀御池Annexビル,35.010499,135.755309,2022-03-31,kyoto,中京区,烏丸御池駅,394.0433360991309,4.0,6600.0,5235461014.0
9040053,松原クラタビル,34.998923,135.763512,2022-03-31,kyoto,下京区,四条駅,480.9460783334197,7.0,11550.0,5235369133.0
9040054,Wayfarerホテル京都四条,35.001049,135.755072,2022-03-31,kyoto,下京区,四条駅,429.1180265855458,5.0,6600.0,5235460012.0
9040055,ORI KYOTOホテル,35.002044,135.753586,2022-03-31,kyoto,下京区,大宮駅,443.4139680826498,5.0,6600.0,5235460012.0
9040056,東福寺駅,34.98196117121766,135.76973477164046,2022-04-06,kyoto,東山区,東福寺駅,16.092751680926522,8.0,11000.0,5235367143.0
9040057,ラ・サール御所,35.0280051,135.7586082,2022-04-05,kyoto,上京区,今出川駅,147.07067718372855,7.0,14850.0,5235463023.0
9040058,相鉄フレッサイン 京都清水五条,34.996465,135.764668,2022-04-12,kyoto,下京区,清水五条駅,397.6263555478475,4.0,8250.0,5235369131.0
9040059,都ホテル 京都八条 駐車場内,34.983321131204335,135.75568024937587,2022-04-20,kyoto,南区,京都駅,176.26808260876317,8.0,16500.0,5235367034.0
9040060,都ホテル 京都八条 正面入口前,34.98409491043647,135.75640707994725,2022-04-20,kyoto,南区,京都駅,67.72159187844947,4.0,11000.0,5235368021.0
9040061,YADO TENKU KYOTO NIJO,35.015894,135.742197,2022-05-13,kyoto,中京区,二条駅,402.37475433624434,7.0,9900.0,5235451934.0
9040062,京都府京都市左京区下鴨宮崎町128-37,35.0360918,135.7695013,2022-05-13,kyoto,左京区,出町柳駅,674.273542366287,4.0,5500.0,5235464123.0
9040063,京都市上京区室町通武者小路下る福長町533ー3,35.0274126,135.758342,2022-05-13,kyoto,上京区,今出川駅,216.9022935923496,4.0,5500.0,5235463023.0
9040064,からすま京都ホテル,35.0019128,135.7593253,2022-04-25,kyoto,下京区,四条駅,31.498702817011434,8.0,16500.0,5235460021.0
9040065,HALE京都東寺,34.98386577238295,135.74951065918495,2022-04-26,kyoto,南区,東寺駅,543.450290769447,4.0,9900.0,5235358922.0
9040066,HALE京都丹波口,34.99313451484968,135.74343547311207,2022-04-26,kyoto,下京区,丹波口駅,469.3170234886041,4.0,9900.0,5235359912.0
9040067,FUGASTAY四条大宮,35.0028310533114,135.75109415404145,2022-05-13,kyoto,下京区,大宮駅,200.7420880558167,3.0,4400.0,5235460013.0
9040068,エイブルパーキング八百屋町,34.99566628082298,135.75566962768806,2022-04-26,kyoto,下京区,五条駅,393.9144533417797,8.0,22000.0,5235369014.0
9040069,イビススタイルズ京都ステーション 東側,34.98375858840034,135.75862225706604,2022-04-26,kyoto,南区,京都駅,186.84393862044743,2.0,4950.0,5235368021.0
9040070,イビススタイルズ京都ステーション 北側,34.98373226719777,135.75847526619927,2022-04-26,kyoto,南区,京都駅,176.89268068566332,10.0,21450.0,5235368021.0
9040071,リノパーキング京都駅前,34.987092,135.761973,2022-05-13,kyoto,下京区,京都駅,178.53810494352655,2.0,4950.0,5235368024.0
9040072,リノパーキング第二赤十字病院前,35.0187196,135.7570857,2022-05-13,kyoto,上京区,丸太町駅,481.3483621829903,2.0,4950.0,5235462021.0
9040074,ホテル・京都・ベース四条烏丸,34.9988113,135.7598601,2022-05-13,kyoto,下京区,四条駅,342.7739811956877,8.0,16500.0,5235369044.0
9040075,京都ダイハツ販売　高野店,35.0402482,135.7862071,2022-05-17,kyoto,左京区,茶山駅,277.9009285161175,3.0,3520.0,5235464244.0
9040076,UniE’terna京都壬生　正面,35.0023781,135.7365835,2022-05-19,kyoto,中京区,西院駅,251.7558465800404,2.0,2200.0,5235450824.0
9040077,UniE’terna京都壬生　駐車場,35.0025678,135.7367502,2022-05-19,kyoto,中京区,西院駅,258.0502700176795,8.0,8800.0,5235450824.0
9040078,UniE’terna京都壬生　建物右横,35.0024253,135.7367374,2022-05-19,kyoto,中京区,西院駅,262.53360725383226,2.0,2200.0,5235450824.0
9040079,UniE’terna京都壬生　建物右奥,35.0024791,135.7367586,2022-05-19,kyoto,中京区,西院駅,262.12844330443323,6.0,6600.0,5235450824.0
9040080,ルーセント二条,35.0113562,135.73713,2022-05-13,kyoto,中京区,二条駅,437.8001895883488,4.0,5500.0,5235451824.0
9040081,ルーセント西院,35.0021665,135.7323946,2022-05-13,kyoto,右京区,西院駅,172.02751972990765,5.0,7700.0,5235450823.0
9040082,変なホテル京都 八条口駅前,34.9841334,135.7619841,2022-05-24,kyoto,南区,京都駅,141.3074328151464,4.0,9000.0,5235368022.0
9040083,Watermark Hotel KYOTO,34.9959879,135.7578364,2022-05-24,kyoto,下京区,五条駅,241.98257436312616,3.0,6000.0,5235369041.0
9040084,デザインホテル京都麩屋町,35.001642,135.765372,2022-05-30,kyoto,下京区,河原町駅,410.7850859667588,5.0,7000.0,5235460111.0
9040085,Expo House Rozan,35.036574010108005,135.74667352525245,2022-07-01,kyoto,北区,鞍馬口駅,1151.52626303461,4.0,4400.0,5235454923.0
9040086,プレサンス京都御所西,35.0161223,135.756165,2022-07-22,kyoto,中京区,丸太町駅,337.3490303078997,4.0,8250.0,5235461034.0
9040087,コージーハイツ大宮,34.999758,135.7490374,2022-08-16,kyoto,下京区,四条大宮駅,390.9686748657322,6.0,17600.0,5235359944.0
9040088,ファミリーマート北野白梅町,35.0259212,135.7313338,2022-05-30,kyoto,北区,北野白梅町駅,163.77714765119907,4.0,20000.0,5235453821.0
9040089,ファミリーマート平安女学院前,35.0187399,135.7578645,2022-05-30,kyoto,上京区,丸太町駅,454.7760809538012,4.0,20000.0,5235462021.0
9040090,ファミリーマート白川北大路,35.040361,135.791937,2022-05-30,kyoto,左京区,一乗寺駅,587.0574134287914,3.0,16000.0,5235464334.0
9040091,ファミリーマート銀閣寺白川通,35.0241223,135.7923893,2022-05-30,kyoto,左京区,元田中駅,1572.5672444699226,2.0,12000.0,5235462334.0
9040092,ファミリーマート五条新町,34.9959819,135.7569834,2022-05-30,kyoto,下京区,五条駅,302.18354849245924,4.0,20000.0,5235369041.0
9040093,ファミリーマート七条壬生,34.989451,135.745853,2022-05-30,kyoto,下京区,丹波口駅,927.1139891847172,4.0,24000.0,5235358941.0
9040094,ファミリーマート千本鞍馬口,35.0374798,135.7395008,2022-05-30,kyoto,北区,北野白梅町駅,1352.7568347243507,4.0,20000.0,5235454913.0
9040095,京都糸屋ホテル Mon,34.9990051,135.7575459,2022-06-21,kyoto,下京区,四条駅,374.61493729364975,3.0,4400.0,5235369043.0
9040096,インターワンプレイス烏丸ビル,35.00659368719375,135.75921996450228,2022-06-27,kyoto,中京区,烏丸御池駅,271.654691480284,6.0,13200.0,5235460043.0
9040097,ハイクラスコーポ五条,34.9976751,135.7405586,2022-07-13,kyoto,下京区,丹波口駅,156.62711874311714,5.0,5500.0,5235359931.0
9040098,京都・粋伝庵離れ ホステル翆,35.03390097570322,135.7447835049544,2022-06-13,kyoto,上京区,鞍馬口駅,1352.813199046985,4.0,7920.0,5235454921.0
9040099,プレサンサンス京都三条大橋鴨川苑,35.0103876,135.7725607,2022-06-24,kyoto,左京区,三条京阪駅,207.18320674655303,4.0,6600.0,5235461122.0
9040101,ゲストハウス京都阿美家,35.0171128,135.7686152,2022-07-12,kyoto,上京区,神宮丸太町駅,392.3475776022271,3.0,4950.0,5235462112.0
9040102,プレサンス京都駅前千都,34.9813483,135.7611948,2022-07-12,kyoto,南区,九条駅,348.1228801567308,13.0,28050.0,5235367044.0
9040103,西洞院HIRANOビル,35.005248035246936,135.7553467879513,2022-06-17,kyoto,中京区,烏丸駅,524.8043541820286,8.0,19800.0,5235460032.0
9040104,カーサ平野,35.00382163189857,135.75359520034365,2022-08-30,kyoto,下京区,大宮駅,407.14483971025993,2.0,5940.0,5235460014.0
9040105,菅大臣町ビル,35.0012098,135.7557818,2022-07-12,kyoto,下京区,四条駅,362.1391531526565,4.0,7920.0,5235460012.0
9040106,洛 徐宅,35.0391375156155,135.75715870153053,2022-07-22,kyoto,北区,鞍馬口駅,360.5950293175379,6.0,8800.0,5235464041.0
9040107,洛之星,35.0127479,135.739428,2022-07-22,kyoto,中京区,二条駅,221.9415624082695,3.0,4400.0,5235451931.0
9040108,九色庵,35.00207845838804,135.73911251288013,2022-07-29,kyoto,中京区,西院駅,479.5852597942224,2.0,3300.0,5235450911.0
9040109,稲荷兔奈家,34.9708489,135.7710442,2022-07-12,kyoto,東山区,伏見稲荷駅,192.8797852802761,3.0,3300.0,5235366141.0
9040110,京町屋実紫,35.0407972,135.752998,2022-07-01,kyoto,北区,北大路駅,591.185151106005,3.0,4290.0,5235464033.0
9040111,ゲストハウス京都ミルズ 瑠璃庵/若草庵,35.0272269,135.7425843,2022-07-22,kyoto,上京区,北野白梅町駅,1036.759324921802,5.0,7700.0,5235453914.0
9040112,FORCE TOJI,34.97791201902167,135.75233019620683,2022-07-01,kyoto,南区,東寺駅,198.0107230155887,8.0,14300.0,5235367013.0
9040113,sequence KYOTO GOJO,34.99775131063205,135.75936000632194,2022-07-01,kyoto,下京区,五条駅,366.5038322879973,4.0,9900.0,5235369041.0
9040114,ツカキスクエア,35.001669859860336,135.7595018441911,2022-07-26,kyoto,下京区,四条駅,28.875333643540543,8.0,24200.0,5235460022.0
9040115,ファミリーマート長者亀屋町店,35.0226515,135.7530178,2022-06-30,kyoto,上京区,今出川駅,927.0604028154362,3.0,12000.0,5235462031.0
9040116,ファミリーマート中立売智恵光院店,35.0252252,135.7468859,2022-06-30,kyoto,上京区,今出川駅,1217.142399667954,15.0,60000.0,5235453922.0
9040117,ファミリーマート祇園白川店,35.005213,135.773056,2022-06-30,kyoto,東山区,祇園四条駅,298.5905584442225,4.0,16000.0,5235460142.0
9040118,ファミリーマート御池西洞院店,35.01061471308934,135.75524260214846,2022-06-30,kyoto,中京区,烏丸御池駅,399.1981670047309,6.0,24000.0,5235461014.0
9040119,ファミリーマート烏丸今出川店,35.0289618,135.7590499,2022-06-30,kyoto,上京区,今出川駅,36.54234889137493,10.0,40000.0,5235463023.0
9040120,ファミリーマート京都今出川針屋町店,35.0295607,135.7540484,2022-06-30,kyoto,上京区,今出川駅,484.57909006899246,5.0,20000.0,5235463032.0
9040121,ファミリーマート烏丸寺ノ内店,35.033902,135.759244,2022-06-30,kyoto,上京区,鞍馬口駅,280.07475497399884,3.0,12000.0,5235464021.0
9040122,ファミリーマート北山栗栖町店,35.04891347838729,135.74390487394766,2022-06-30,kyoto,北区,北大路駅,1412.0521097572323,7.0,28000.0,5235455943.0
9040123,ファミリーマート紫明通店,35.038400814164206,135.75502075073666,2022-06-30,kyoto,北区,鞍馬口駅,449.1363487339644,4.0,16000.0,5235464032.0
9040124,ファミリーマート東洞院下珠数屋町店,34.990245,135.760614,2022-06-30,kyoto,下京区,京都駅,453.10469610852863,3.0,12000.0,5235368044.0
9040125,ファミリーマート京都西七条店,34.9893929,135.7340341,2022-06-30,kyoto,下京区,西大路駅,900.3537942463335,6.0,24000.0,5235358841.0
9040126,ファミリーマート新町高辻店,35.000186,135.756616,2022-06-30,kyoto,下京区,四条駅,336.57256105633144,5.0,20000.0,5235460021.0
9040127,ファミリーマート京都七条本町店,34.989041,135.769408,2022-06-30,kyoto,東山区,七条駅,243.18106862656515,4.0,16000.0,5235368141.0
9040128,ファミリーマート東山清水坂店,34.996462,135.776941,2022-06-30,kyoto,東山区,清水五条駅,732.0203919775607,9.0,56000.0,5235369231.0
9040129,ファミリーマート田中御蔭通店,35.033152858153734,135.7852077729035,2022-06-30,kyoto,左京区,元田中駅,410.97332088810447,4.0,16000.0,5235463244.0
9040130,ファミリーマート塚本祇園東山店,35.008024,135.778041,2022-06-30,kyoto,東山区,東山駅,263.8622752816964,4.0,16000.0,5235460233.0
9040131,ファミリーマート西大路九条店,34.978647,135.733227,2022-06-30,kyoto,南区,西大路駅,319.4619836307317,6.0,24000.0,5235357823.0
9040132,ファミリーマート唐橋羅城門町店,34.978588,135.740458,2022-06-30,kyoto,南区,西大路駅,806.3775506587596,3.0,12000.0,5235357913.0
9040133,MFS room,35.044451085956524,135.77100827997805,2022-07-01,kyoto,左京区,松ヶ崎駅,899.5745297962453,2.0,3300.0,5235465123.0
9040134,SACRAビル,35.008716638910634,135.76493813560592,2022-07-26,kyoto,中京区,烏丸御池駅,481.8160782587552,7.0,19800.0,5235461111.0
9040135,京都市上京区猪熊一丁目366-1,35.02368421851968,135.75054465012508,2022-07-13,kyoto,上京区,今出川駅,1008.1184632837184,3.0,6600.0,5235462033.0
9040136,Fフラット北白川,35.0289358,135.7846836,2022-07-19,kyoto,左京区,元田中駅,736.202302726539,4.0,6600.0,5235463224.0
9040137,Mフラット百萬遍,35.0326083,135.7779338,2022-07-19,kyoto,左京区,元田中駅,397.2548144196983,4.0,9240.0,5235463233.0
9040138,Aフラット高野,35.0401362,135.7844891,2022-07-19,kyoto,左京区,茶山駅,219.7753056077192,4.0,6600.0,5235464244.0
9040139,ヴェール一乗寺,35.0438757,135.7879073,2022-07-19,kyoto,左京区,一乗寺駅,54.75892159153881,4.0,7920.0,5235465313.0
9040140,KOKORO岡崎BLDG 北側,35.0105016,135.7850789,2022-07-15,kyoto,左京区,東山駅,442.8190042618599,3.0,4840.0,5235461224.0
9040141,KOKORO岡崎BLDG 南側,35.0104906,135.7848891,2022-07-15,kyoto,左京区,東山駅,425.89435895661126,5.0,8470.0,5235461224.0
9040142,京峰ビル 駐輪場,34.9977021,135.7767543,2022-07-13,kyoto,東山区,清水五条駅,713.4334800713971,6.0,9240.0,5235369231.0
9040143,古都の別荘 京町屋西陣 駐輪場,35.034775431736186,135.74565917213872,2022-07-13,kyoto,上京区,鞍馬口駅,1257.1358891235575,4.0,7150.0,5235454921.0
9040144,龍谷大前深草駅 西出口,34.9644434,135.7698181,2022-07-08,kyoto,伏見区,深草駅,42.10034567071053,8.0,14300.0,5235365141.0
9040145,ベラジオ五条堀川Ⅱ,34.9956196,135.7540615,2022-09-06,kyoto,下京区,五条駅,532.8225533550351,8.0,18150.0,5235369014.0
9040146,ベラジオ京都駅東,34.9910074,135.764842,2022-09-06,kyoto,下京区,七条駅,254.36617395140004,3.0,6600.0,5235368133.0
9040147,コスモ5 エントランス前,35.0025895,135.7544528,2022-10-07,kyoto,下京区,四条駅,481.5228269344558,3.0,16500.0,5235460014.0
9040148,ドミノ健仁寺,34.9984434,135.7746649,2022-07-12,kyoto,東山区,清水五条駅,539.766460037736,6.0,6600.0,5235369144.0
9040149,クレール白梅,35.0309797,135.7321684,2022-07-22,kyoto,北区,北野白梅町駅,408.7803153339422,2.0,3300.0,5235453841.0
9040150,下鴨ハイツB棟,35.0350099,135.7770893,2022-07-12,kyoto,左京区,元田中駅,378.9223856919102,12.0,13200.0,5235464211.0
9040151,コンフォート花屋町,34.992684,135.7475404,2022-07-13,kyoto,下京区,丹波口駅,702.1804803541017,13.0,14300.0,5235359922.0
9040152,リバーサイド高野,35.0352649,135.7766983,2022-07-13,kyoto,左京区,元田中駅,416.0866316415604,8.0,11000.0,5235464211.0
9040153,リヴェルト京都鴨川,35.03133958497371,135.7698956989523,2022-07-13,kyoto,上京区,出町柳駅,281.7578284843913,2.0,3630.0,5235463143.0
9040154,rest.inn.kyoto,34.9980947,135.7484671,2022-07-25,kyoto,下京区,四条大宮駅,571.1035249649427,4.0,6000.0,5235359944.0
9040155,ヴィアイン京都駅八条口,34.9834777,135.758413,2022-07-25,kyoto,南区,京都駅,189.2983136883053,3.0,8800.0,5235368021.0
9040156,Colours,34.9997517,135.7545936,2022-07-29,kyoto,下京区,四条駅,519.9343114587978,2.0,3300.0,5235369034.0
9040157,大泉寺・路地ing,35.03694634734069,135.7579526292802,2022-07-29,kyoto,上京区,鞍馬口駅,137.56347351370732,8.0,14520.0,5235464023.0
9040159,京都府京都市下京区朱雀正会町38-14,34.9910525,135.7434906,2022-08-16,kyoto,下京区,丹波口駅,697.0498227806117,4.0,5500.0,5235358934.0
9040160,祇園新橋サンキンガレージ,35.0055213,135.7756946,2022-07-29,kyoto,東山区,三条駅,428.1231568430392,5.0,7700.0,5235460231.0
9040161,美盧京都二条ホテル　フロント,35.008989234616216,135.74452848553457,2022-08-01,kyoto,中京区,二条駅,415.8340466638818,4.0,5500.0,5235451921.0
9040162,美盧京都二条ホテル　裏側,35.00899615077835,135.74438154374948,2022-08-02,kyoto,中京区,二条駅,408.6432811006643,4.0,6600.0,5235451921.0
9040163,FUJITAYA BnB Bike&Yoga,34.989672272684004,135.73416257058162,2022-07-29,kyoto,下京区,西大路駅,933.0040061338466,4.0,5500.0,5235358843.0
9040164,オリエンタルホテル京都六条,34.9944438,135.7536682,2022-07-29,kyoto,下京区,五条駅,553.0992543691469,10.0,11000.0,5235369014.0
9040165,サイトウビル,35.0299566,135.7478093,2022-09-13,kyoto,上京区,今出川駅,1054.3549342569506,8.0,22000.0,5235453942.0
9040166,KUSANOMIYA,34.9998289,135.749017,2022-08-17,kyoto,下京区,四条大宮駅,382.8909494983575,2.0,6600.0,5235359944.0
9040167,ベラジオ四条烏丸Ⅲ,35.0020773,135.7586789,2022-08-05,kyoto,下京区,四条駅,92.64417734681489,12.0,24750.0,5235460021.0
9040168,ベラジオ京都一乗寺,35.0463863,135.7871683,2022-09-06,kyoto,左京区,一乗寺駅,257.0423655755093,16.0,33000.0,5235465242.0
9040169,ベラジオ京都神泉,35.0082211,135.7469717,2022-08-09,kyoto,中京区,大宮駅,544.972174901467,3.0,6600.0,5235450944.0
9040170,ベラジオ京都西院ウエストシティ,35.0025096,135.7337777,2022-08-09,kyoto,中京区,西院駅,93.96313047083036,4.0,9900.0,5235450823.0
9040171,ベラジオ四条堀川,35.0028425,135.7517206,2022-10-04,kyoto,下京区,大宮駅,252.4639981395445,5.0,8250.0,5235460013.0
9040172,ベラジオ堀川今出川,35.0323453,135.7511272,2022-09-06,kyoto,上京区,今出川駅,827.3018202358264,4.0,8250.0,5235463033.0
9040173,ウイングウッド東山,34.9940922,135.7712571,2022-08-16,kyoto,東山区,清水五条駅,400.6631370454077,4.0,8250.0,5235369123.0
9040175,株式会社フラット・エージェンシー所有倉庫横,35.0402454,135.7512048,2022-08-09,kyoto,北区,北大路駅,761.9837909557091,6.0,8800.0,5235464033.0
9040176,タイムパーキング下鴨松ノ木町,35.0400044,135.7704733,2022-08-09,kyoto,左京区,出町柳駅,1057.7422856577373,4.0,5500.0,5235464143.0
9040177,メゾンドヤーブ,35.048179329848054,135.7956811957422,2022-08-09,kyoto,左京区,修学院駅,532.6876050164899,3.0,2200.0,5235465343.0
9040178,梅小路ポテル京都,34.98778200677305,135.74615580543698,2022-08-22,kyoto,下京区,京都駅,1036.0371526720571,6.0,13200.0,5235358941.0
9040179,FUJITAYA Kyoto,34.9947752,135.7479383,2022-08-17,kyoto,下京区,丹波口駅,590.4906255019284,8.0,11000.0,5235359924.0
9040180,京都市左京区下鴨泉川町34-4,35.0381833,135.7743819,2022-08-23,kyoto,左京区,元田中駅,722.4067093538428,6.0,6600.0,5235464142.0
9040183,Dパーキング松原新町第1,34.9985564,135.7570931,2022-08-31,kyoto,下京区,四条駅,438.7439278238121,6.0,9240.0,5235369043.0
9040184,鹿苑寺（金閣寺）,35.0387548730936,135.731876318877,2022-09-26,kyoto,北区,北野白梅町駅,1265.2176023632956,12.0,16500.0,5235454841.0
9040185,Kamon Inn 東寺ひょうたん,34.9809973,135.7440846,2022-08-30,kyoto,南区,東寺駅,788.6288624405067,2.0,2640.0,5235357941.0
9040186,プレサンス京大南,35.0174453,135.7736906,2022-09-09,kyoto,左京区,神宮丸太町駅,219.3396939567424,3.0,6600.0,5235462122.0
9040187,べラジオ京都壬生イーストゲート,34.9995729,135.7342839,2022-09-06,kyoto,中京区,西院駅,417.114422506362,8.0,16500.0,5235359843.0
9040188,べラジオ京都壬生ウエストゲート,34.9995366,135.7339027,2022-09-06,kyoto,中京区,西院駅,420.9714363143459,8.0,16500.0,5235359843.0
9040189,ベラジオ西陣聚楽Ⅱ,35.0286769,135.7430457,2022-09-06,kyoto,上京区,北野白梅町駅,1088.054869116517,2.0,4950.0,5235453914.0
9040191,ブランネージュ烏丸五条,34.9950997,135.760987,2022-09-09,kyoto,下京区,五条駅,133.4379107750527,3.0,5720.0,5235369024.0
9040192,ブランネージュ二条城北,35.0183456,135.7490749,2022-09-09,kyoto,上京区,二条城前駅,737.8497555738384,4.0,7150.0,5235452922.0
9040193,ブランネージュ銀閣寺道,35.028325,135.7911818,2022-09-09,kyoto,左京区,元田中駅,1164.9708547797795,3.0,5720.0,5235463314.0
9040194,Lull KYOTO,35.0143157,135.7650491,2022-09-07,kyoto,中京区,丸太町駅,504.8550218991572,5.0,7700.0,5235461131.0
9040195,ザパーク八条源町,34.9843893,135.7435294,2022-09-09,kyoto,南区,東寺駅,977.5555288562484,8.0,11000.0,5235358912.0
9040196,VineOakAgeha,35.0303291,135.7559699,2022-09-27,kyoto,上京区,今出川駅,333.23662534538704,8.0,16500.0,5235463032.0
9040197,SWISS京都堀川EAST,35.023623,135.7525241,2022-09-27,kyoto,上京区,今出川駅,876.4289180091998,6.0,6600.0,5235462033.0
9040198,SO Kyoto Fushimi Inari,34.967072715524154,135.76861138165722,2022-09-30,kyoto,伏見区,稲荷駅,230.3791846902762,2.0,2640.0,5235366112.0
9040199,コーポアドヴァンス,34.9670245,135.7685826,2022-09-14,kyoto,伏見区,稲荷駅,230.60846577693744,3.0,3520.0,5235366112.0
9040200,総合型選抜専門塾AOI 京都校,35.001306,135.7602981,2022-09-14,kyoto,下京区,四条駅,86.54419676621859,3.0,4400.0,5235460022.0
9040201,Superjpm寺町 南側,35.0015786,135.7668117,2022-10-17,kyoto,下京区,河原町駅,318.56364987444334,4.0,6600.0,5235460112.0
9040202,Superjpm寺町 北側,35.0015242,135.766693,2022-10-21,kyoto,下京区,河原町駅,330.1605989797491,2.0,2970.0,5235460112.0
9040203,Superjpm三条室町2,35.0082795,135.7579825,2022-10-21,kyoto,中京区,烏丸御池駅,173.03107506157014,2.0,2970.0,5235460043.0
9040204,Superjpm杉屋町,34.9988639,135.7636184,2022-09-16,kyoto,下京区,四条駅,492.50944648060926,3.0,3300.0,5235369133.0
9040205,Superjpm柳馬場,34.9986331,135.7639327,2022-09-20,kyoto,下京区,清水五条駅,485.48383988040194,5.0,7700.0,5235369133.0
9040206,Superjpm五条坂,34.9948818,135.7761616,2022-09-16,kyoto,東山区,清水五条駅,704.0584315083344,2.0,2640.0,5235369213.0
9040207,GOODパーク西院,35.0060404,135.7317286,2022-09-16,kyoto,右京区,西大路三条駅,230.9389248848315,2.0,2640.0,5235450841.0
9040208,Kamon Inn相深１,34.9725028,135.7691667,2022-10-25,kyoto,伏見区,鳥羽街道駅,231.54546770584244,4.0,4400.0,5235366141.0
9040209,Kamon Inn Family eTemple,34.981406,135.7444914,2022-10-26,kyoto,南区,東寺駅,762.3943254081064,6.0,7920.0,5235357943.0
9040210,Kamon Inn東寺道,34.9817892,135.7509689,2022-09-28,kyoto,南区,東寺駅,277.1624835332981,2.0,2640.0,5235367033.0
9040211,Kamon Inn東寺東,34.9831723,135.749493,2022-09-28,kyoto,南区,東寺駅,480.0102392867988,2.0,2640.0,5235357944.0
9040212,Kamon Inn東山五条,34.9931388,135.775723,2022-09-28,kyoto,東山区,清水五条駅,761.9526046212234,4.0,5280.0,5235369211.0
9040213,エクセレント衣笠　駐車場通路,35.0308532,135.7316476,2022-09-16,kyoto,北区,北野白梅町駅,387.2415106652526,2.0,3300.0,5235453841.0
9040214,グランシャトレー,35.0024091,135.7650754,2022-09-16,kyoto,下京区,河原町駅,392.8006860227195,3.0,1650.0,5235460113.0
9040215,エクセレント衣笠　エントランス階段横,35.0307637,135.7317509,2022-09-16,kyoto,北区,北野白梅町駅,378.4776837564699,4.0,5500.0,5235453841.0
9040216,フルーツパーク千本寺之内,35.0340721,135.7414615,2022-10-05,kyoto,上京区,北野白梅町駅,1193.7489550309049,4.0,6600.0,5235454912.0
9040217,サニータウン,34.9890715,135.749945,2022-11-07,kyoto,下京区,京都駅,801.7977667947279,4.0,5500.0,5235358942.0
9040218,鳴海餅本店,35.01994,135.75141,2022-10-17,kyoto,上京区,二条城前駅,894.7879733766446,4.0,4400.0,5235462013.0
9040219,京都市左京区一乗寺西浦畑町60−1,35.046011,135.7936633,2022-10-07,kyoto,左京区,修学院駅,519.2101829179667,2.0,1650.0,5235465332.0
9040220,The Bespoke,35.0349687,135.7432532,2022-10-07,kyoto,上京区,北野白梅町駅,1383.6821135718164,4.0,2750.0,5235454912.0
9040221,THE KYOTO澄華,34.975078,135.7573742,2022-10-05,kyoto,南区,九条駅,432.9475351756749,4.0,8250.0,5235367021.0
9040222,GARNET RESIDENCE下鴨,35.0438949,135.7729223,2022-10-05,kyoto,左京区,松ヶ崎駅,890.6566349923892,2.0,3300.0,5235465124.0
9040223,アベントゥーライフKYOTO BASE,34.9831987,135.7245706,2022-10-14,kyoto,南区,西大路駅,732.3151116336754,16.0,0.0,5235357744.0
9040224,Hotel Zipangu Goshonishi,35.02038,135.75415,2022-10-17,kyoto,上京区,丸太町駅,783.8924893013892,5.0,7700.0,5235462014.0
9040225,コスモ5 通路側,35.0026085,135.7544387,2022-10-07,kyoto,下京区,四条駅,483.1350961775767,3.0,0.0,5235460014.0
9040226,コスモ5 物件奥側,35.0028155,135.754442,2022-10-07,kyoto,下京区,四条駅,487.1758282461953,3.0,0.0,5235460014.0
9040227,ホテルイルヴェルデ京都,34.9914672,135.7646924,2022-11-01,kyoto,下京区,七条駅,280.02333472026544,4.0,5500.0,5235368133.0
9040228,京都府京都市東山区東分木町268,35.0094869,135.7878489,2022-11-02,kyoto,東山区,蹴上駅,318.35532574553565,3.0,1980.0,5235461311.0
9040229,あずきや,35.0094795,135.7879321,2022-11-02,kyoto,東山区,蹴上駅,311.94804741926487,3.0,1980.0,5235461311.0
9040230,シャトル下鴨,35.0442532,135.7748751,2022-10-26,kyoto,左京区,松ヶ崎駅,817.9925531908499,2.0,1980.0,5235465124.0
9040231,抹茶堂　京都清水産寧坂,34.9969077,135.7807753,2022-10-20,kyoto,東山区,祇園四条駅,1047.7772310945757,3.0,3000.0,5235369232.0
9040232,吉啓織物株式会社,35.0354414,135.744262,2022-11-02,kyoto,上京区,鞍馬口駅,1375.277493609999,4.0,2750.0,5235454923.0
9040233,アーバンフラッツ四条西洞院,35.00338,135.75506,2022-10-24,kyoto,下京区,四条駅,451.3967110636421,2.0,3960.0,5235460014.0
9040234,花築　京都河原町ホテル,35.001279,135.7685971,2022-11-17,kyoto,下京区,河原町駅,281.1417895893845,7.0,13200.0,5235460112.0
9040235,花築　青楓ホテル,35.0019947,135.7312698,2022-11-17,kyoto,右京区,西院駅,177.72882872111987,3.0,3520.0,5235450821.0
9040236,サンフローラ下鴨東,35.0374896,135.7774202,2022-10-28,kyoto,左京区,元田中駅,450.0969936906608,6.0,18480.0,5235464213.0
9040237,CABIN三条AQUA,35.0075545,135.7727082,2022-11-02,kyoto,東山区,三条駅,80.61758674485424,3.0,2800.0,5235460144.0
9040238,リノパーキング清水寺前,34.9949555,135.7810365,2022-11-02,kyoto,東山区,清水五条駅,1127.9193514646972,6.0,6600.0,5235369214.0
9040239,ヴィラ・ジュエル,35.0353349,135.7445185,2022-11-02,kyoto,上京区,鞍馬口駅,1353.0042443301536,4.0,2750.0,5235454921.0
9040240,TSUKIMI HOTEL,35.0008857,135.7784418,2022-11-17,kyoto,東山区,祇園四条駅,643.8017370593788,5.0,6000.0,5235460212.0
9040241,京都府京都市上京区大宮通鞍馬口下る東入新ン町591,35.037032,135.7493971,2022-11-17,kyoto,上京区,鞍馬口駅,905.987772677836,3.0,1650.0,5235454924.0
9040242,プレサンスTHE　KYOTO　粋都,34.9744595,135.7572044,2022-11-04,kyoto,南区,十条駅,426.511891622561,8.0,13200.0,5235366043.0
9040243,松ケ崎堀町2 駐車場,35.0521642,135.781883,2022-11-17,kyoto,左京区,松ヶ崎駅,568.3705756279867,4.0,2500.0,5235466223.0
9040244,ミューズイレブン,35.0073598,135.7343167,2022-12-01,kyoto,,西大路三条駅,197.81999622207903,10.0,8800.0,5235450843.0
9040245,サンシティ車坂,34.9748364,135.7785457,2022-12-01,kyoto,伏見区,鳥羽街道駅,779.6972380844637,5.0,2750.0,5235366234.0
9040246,下京区桝屋町御幸町通高辻下る467,34.9997025,135.7663048,2022-12-02,kyoto,下京区,清水五条駅,371.4582069300828,18.0,17600.0,5235369134.0
9040248,プレサンスTHE　KYOTO東福寺WEST,34.9784495,135.7642039,2022-11-22,kyoto,南区,九条駅,405.7933928147501,8.0,14850.0,5235367113.0
9040251,清水三年坂 Home in KYOTO,34.9964727,135.7816182,2022-12-02,kyoto,東山区,祇園四条駅,1138.0480272482712,2.0,1600.0,5235369241.0
9040252,スールバリエ　ルネス壬生川,34.9922703,135.7458073,2022-12-01,kyoto,下京区,丹波口駅,642.4327454785498,4.0,3200.0,5235359921.0
9040253,京都市上京区若松町349,35.0273237,135.74098,2022-11-29,kyoto,上京区,北野白梅町駅,890.5506813396312,8.0,8000.0,5235453914.0
9040255,アローズマンション,35.0402441,135.7491007,2022-12-16,kyoto,北区,北大路駅,931.6815010583812,5.0,2500.0,5235454944.0
9040256,大泉寺北側駐車場,35.0372766,135.7580989,2022-12-16,kyoto,上京区,鞍馬口駅,146.3977752445159,9.0,9000.0,5235464023.0
9040257,STAY Inn KOTO,34.9697651,135.7683845,2022-12-16,kyoto,伏見区,伏見稲荷駅,87.27825103081793,3.0,1760.0,5235366114.0
9040258,Super pouvoir KYOTO,34.9841892,135.7490531,2022-12-16,kyoto,南区,東寺駅,596.0171476944707,10.0,5000.0,5235358922.0
9040259,京都トヨタ大石橋寮,34.9789473,135.7592472,2022-12-16,kyoto,南区,九条駅,71.80760660422027,6.0,5280.0,5235367023.0
9040260,マンション紫峰,35.0393558,135.7574464,2022-12-16,kyoto,北区,鞍馬口駅,368.3267542752095,5.0,3000.0,5235464041.0
9040261,ROCAReTA FOR HAIR 千本丸太町店,35.0182578,135.7410689,2023-01-17,kyoto,中京区,二条駅,666.9218788966419,5.0,5000.0,5235452912.0
9040263,ナカムラフーズ,35.0199729,135.7490021,2022-12-16,kyoto,,二条城前駅,915.9201823420944,3.0,2400.0,5235452924.0
9040264,ROCAReTA FOR HAIR 四条大宮店,35.001193,135.7491976,2023-01-17,kyoto,下京区,四条大宮駅,239.0075681249384,8.0,8000.0,5235450922.0
9040265,京阪三条駅_出入口横,35.008526,135.772522,2023-01-05,kyoto,東山区,三条駅,39.24841434099428,0.0,53900.0,5235461122.0
9040266,コーポ東洞院,35.01309,135.76105,2023-01-06,kyoto,中京区,丸太町駅,242.3251336237276,3.0,3300.0,5235461042.0
9040267,ホテルビスタプレミオ京都 河原町通り,35.0080197,135.7680734,2023-01-06,kyoto,中京区,京都市役所前駅,347.6879911938035,4.0,8800.0,5235460134.0
9040269,京都イマージアムビル,35.0043051,135.7701004,2023-01-07,kyoto,下京区,河原町駅,112.08164024234446,3.0,1980.0,5235460141.0
9040270,グルモンドビル,35.0040355,135.7703029,2023-01-05,kyoto,下京区,河原町駅,117.5991812085218,3.0,1980.0,5235460123.0
9040271,コーポサンプラザ,35.01756,135.77873,2022-12-28,kyoto,左京区,神宮丸太町駅,612.9056940469467,3.0,1650.0,5235462212.0
9040272,京都市下京区中堂寺前田町9-12,34.99517,135.74622,2023-01-16,kyoto,下京区,丹波口駅,432.6964109129858,7.0,4620.0,5235359923.0
9040273,キョウリンクJR二条駅東パーキング,35.0103468,135.743295,2023-01-17,kyoto,中京区,二条駅,230.01533365695715,4.0,2400.0,5235451912.0
9040274,KRP西屋外駐輪場,34.9958036,135.7378164,2023-01-17,kyoto,下京区,丹波口駅,428.8015761679075,5.0,5500.0,5235359913.0
9040275,キョウリンク一乗寺西水干町パーキング,35.0389516,135.7856034,2023-01-17,kyoto,左京区,茶山駅,131.52229053028918,4.0,2400.0,5235464242.0
9040276,キョウリンク一乗寺地蔵本町パーキング,35.0414408,135.7834719,2023-01-17,kyoto,左京区,茶山駅,377.3130817197485,6.0,3600.0,5235464243.0
9040277,キョウリンク西ノ京永本町パーキング,35.0127696,135.7392879,2023-01-17,kyoto,中京区,二条駅,234.9146596504125,10.0,6000.0,5235451931.0
9040278,キョウリンク西大路五条南パーキング,34.9952254,135.7335174,2023-01-17,kyoto,下京区,丹波口駅,820.8309072392951,5.0,3000.0,5235359823.0
9040279,サーティフル二条,35.01545,135.72977,2023-01-16,kyoto,中京区,円町駅,314.70321895273776,5.0,1500.0,5235451834.0
9040280,下京区若宮通六条上る上若宮町90,34.99437,135.75604,2023-02-03,kyoto,下京区,五条駅,337.2234256063602,5.0,3000.0,5235369014.0
9040281,Eau de Vie烏丸通,34.99815,135.75904,2023-01-16,kyoto,下京区,五条駅,414.13606825857767,6.0,7200.0,5235369043.0
9040282,粟田山荘,35.0079639,135.7839822,2023-01-17,kyoto,東山区,東山駅,361.93014575478713,10.0,12000.0,5235460243.0
9040283,鳥居屋,34.9858069,135.7685313,2023-02-09,kyoto,京都市東山区,東福寺駅,450.9006638501947,5.0,4000.0,5235368114.0
9040284,BADGE kyoto door,34.9868504,135.7622292,2023-02-09,kyoto,京都市下京区,京都駅,169.334290816355,10.0,11000.0,5235368024.0
9040285,べラジオ烏丸東,34.99928,135.76145,2023-02-09,kyoto,京都市下京区,四条駅,332.4361225963844,7.0,11550.0,5235369044.0
9040286,高橋練染株式会社,35.0095213,135.7218495,2023-02-09,kyoto,京都市右京区,山ノ内駅,166.45525333593488,4.0,1600.0,5235451721.0
9040287,べラジオ二条城前,35.01208,135.75502,2023-02-07,kyoto,京都市中京区,二条城前駅,366.65753061286455,2.0,6600.0,5235461014.0
9040288,レ・コネクション本社ビル,34.9878607,135.7533034,2023-02-09,kyoto,京都市下京区,京都駅,485.8728302340306,4.0,2200.0,5235368032.0
9040289,京都トラベラーズ・イン,35.0117708,135.7840281,2023-02-10,kyoto,京都市左京区,東山駅,422.6861079537262,7.0,9240.0,5235461223.0
9040291,奏 松原御幸町 もみじ邸,34.99896,135.76594,2023-02-06,kyoto,京都市下京区,清水五条駅,339.45856797732733,3.0,1650.0,5235369134.0
9040292,奏 京都駅前,34.98189,135.76117,2023-02-03,kyoto,京都市南区,京都駅,369.168860049832,3.0,1650.0,5235367044.0
9040293,プレサンス二条城北聚楽,35.01749,135.74939,2023-02-06,kyoto,京都市上京区,二条城前駅,638.6394626068258,3.0,4950.0,5235452922.0
9040294,プレサンス京都駅前,34.98752,135.76258,2023-02-03,kyoto,京都市下京区,京都駅,248.07945173392028,5.0,8250.0,5235368131.0
9040298,東横INN京都二条城南,35.0077841,135.7521243,2023-02-03,kyoto,京都市中京区,二条城前駅,468.982649174252,5.0,6600.0,5235460033.0
9040304,マンション花ノ木,35.0437127,135.7926719,2023-02-10,kyoto,京都市左京区,一乗寺駅,485.3000474041242,4.0,1600.0,5235465312.0
9040305,べラジオ四条烏丸Ⅱ,35.00441,135.75839,2023-02-09,kyoto,京都市中京区,烏丸駅,232.414651170106,3.0,4950.0,5235460041.0
9040306,本町マンション,34.9860752,135.7701199,2023-02-10,kyoto,京都市東山区,東福寺駅,463.58291346479535,4.0,1600.0,5235368123.0
